[{"Id":280,"Name":"Località Medeazza, 7, Medeazza, Duino-aurisina, TS, Italia","Latitude":45.7974485,"Longitude":13.6034393,"Address":"Tel. 040 208375","Phone":"Febbraio, da fine Ottobre a fine Novembre","Site":null,"ImageUrl":null,"Zone":null,"Open":null},{"Id":281,"Name":"Località Medeazza, 21, Medeazza, Duino-aurisina, TS, Italia","Latitude":45.7974737,"Longitude":13.6034316,"Address":"Tel. 040 208601","Phone":"Gennaio, Aprile e seconda metà di Agosto","Site":null,"ImageUrl":null,"Zone":null,"Open":null},{"Id":282,"Name":"Località Medeazza, 6, Medeazza, Duino-aurisina, TS, Italia","Latitude":45.7974485,"Longitude":13.6034393,"Address":"Tel. 040 208726","Phone":"29 Aprile - 28 Maggio","Site":null,"ImageUrl":null,"Zone":null,"Open":null},{"Id":283,"Name":"Località Medeazza, 16, Medeazza, Duino-aurisina, TS, Italia","Latitude":45.7992599,"Longitude":13.604635,"Address":"Tel. 040 208451","Phone":"14 Marzo - 31 Marzo e prima metà di Ottobre","Site":null,"ImageUrl":null,"Zone":null,"Open":null},{"Id":284,"Name":"Località Medeazza, 10, Medeazza, Duino-aurisina, TS, Italia","Latitude":45.797392,"Longitude":13.60346,"Address":"Tel. 040 20898","Phone":"Luglio e da fine Novembre a fine Dicembre","Site":null,"ImageUrl":null,"Zone":null,"Open":null},{"Id":285,"Name":"Località Medeazza, 14, Medeazza, Duino-aurisina, TS, Italia","Latitude":45.7994429,"Longitude":13.604315,"Address":"Tel. 040 208553","Phone":"Febbraio e da fine Giugno a inizio Luglio e inizio Ottobre","Site":null,"ImageUrl":null,"Zone":null,"Open":null},{"Id":286,"Name":"Località Medeazza, 21/, Medeazza, Duino-aurisina, TS, Italia","Latitude":45.7974737,"Longitude":13.6034316,"Address":"Tel. 040 208833","Phone":"Gennaio e Aprile","Site":null,"ImageUrl":null,"Zone":null,"Open":null},{"Id":287,"Name":"Località Medeazza, 1, Medeazza, Duino-aurisina, TS, Italia","Latitude":45.7974485,"Longitude":13.6034393,"Address":"","Phone":"","Site":null,"ImageUrl":null,"Zone":null,"Open":null},{"Id":288,"Name":"Località Medeazza, 17, Medeazza, Duino-aurisina, TS, Italia","Latitude":45.797908,"Longitude":13.604732,"Address":"","Phone":"","Site":null,"ImageUrl":null,"Zone":null,"Open":null},{"Id":289,"Name":"Località Visogliano, 1/C, Sistiana-visogliano, TS, Italia","Latitude":45.7792401,"Longitude":13.6479629,"Address":"","Phone":"","Site":null,"ImageUrl":null,"Zone":null,"Open":null},{"Id":290,"Name":"Località Aurisina Cave, 8, Aurisina, TS, Italia","Latitude":45.7531989,"Longitude":13.6657944,"Address":"Tel. 040 200241","Phone":"Dal 23 Gennaio AL 18 Maggio, da metà Ottobre a metà Dicembre","Site":null,"ImageUrl":null,"Zone":null,"Open":null},{"Id":291,"Name":"Località Aurisina Cave, 10, Aurisina, TS, Italia","Latitude":45.7531989,"Longitude":13.6657944,"Address":"Tel. 040 200957","Phone":"Maggio e Luglio","Site":null,"ImageUrl":null,"Zone":null,"Open":null},{"Id":292,"Name":"Località Aurisina Cave, 62/A, Aurisina, TS, Italia","Latitude":45.7531989,"Longitude":13.6657944,"Address":"Tel. 040 200041","Phone":"Dal 28 Marzo al 15 Aprile","Site":null,"ImageUrl":null,"Zone":null,"Open":null},{"Id":293,"Name":"Località Aurisina Cave, 25/Z, Aurisina, TS, Italia","Latitude":45.752687,"Longitude":13.660092,"Address":"","Phone":"","Site":null,"ImageUrl":null,"Zone":null,"Open":null},{"Id":294,"Name":"Santa Croce 21/B, TS, Italia","Latitude":45.732145,"Longitude":13.692263,"Address":"","Phone":"","Site":null,"ImageUrl":null,"Zone":null,"Open":null},{"Id":295,"Name":"Località Slivia, 25, Slivia, TS, Italia","Latitude":45.770543,"Longitude":13.666643,"Address":"Tel. 040 200750","Phone":"Dal 10 al 30 Aprile","Site":null,"ImageUrl":null,"Zone":null,"Open":null},{"Id":296,"Name":"Località Slivia, 2/A, Slivia, TS, Italia","Latitude":45.76795,"Longitude":13.664402,"Address":"Tel. 040 200634","Phone":"Da metàGiugno a metà Luglio","Site":null,"ImageUrl":null,"Zone":null,"Open":null},{"Id":297,"Name":"Località Slivia, 9, Slivia, TS, Italia","Latitude":45.770888,"Longitude":13.664613,"Address":"Tel. 040 200415","Phone":"Da fine Maggio a metà Giugno","Site":null,"ImageUrl":null,"Zone":null,"Open":null},{"Id":298,"Name":"Località Ceroglie, 34, Ceroglie, Trieste, Italia","Latitude":45.788932,"Longitude":13.641247,"Address":"Tel. 040 299800","Phone":"Marzo e Agosto","Site":null,"ImageUrl":null,"Zone":null,"Open":null},{"Id":299,"Name":"Località Ceroglie, 30, Ceroglie, Trieste, Italia","Latitude":45.789226,"Longitude":13.6419608,"Address":"Tel. 040 299435","Phone":"Agosto","Site":null,"ImageUrl":null,"Zone":null,"Open":null},{"Id":300,"Name":"Località Malchina, 4, Malchina, TS, Italia","Latitude":45.784872,"Longitude":13.657242,"Address":"Tel. 040 299442","Phone":"Maggio Ottobre","Site":null,"ImageUrl":null,"Zone":null,"Open":null},{"Id":301,"Name":"Località Malchina, 11, Malchina, TS, Italia","Latitude":45.785252,"Longitude":13.658508,"Address":"Tel. 040 299806","Phone":"Dal 1° Luglio al 22 Luglio","Site":null,"ImageUrl":null,"Zone":null,"Open":null},{"Id":302,"Name":"Località Malchina, 42, Malchina, TS, Italia","Latitude":45.7853798,"Longitude":13.6574866,"Address":"Tel. 040 299450","Phone":"Giugno e prima metà di Agosto","Site":null,"ImageUrl":null,"Zone":null,"Open":null},{"Id":303,"Name":"Samatorza, 5, TS, Italia","Latitude":45.758093,"Longitude":13.71759,"Address":"","Phone":"","Site":null,"ImageUrl":null,"Zone":null,"Open":null},{"Id":304,"Name":"Samatorza, TS, Italia","Latitude":45.7601258,"Longitude":13.7171303,"Address":"Tel. 040 229326","Phone":"Dal 13 Marzo AL 5 Aprile e periodo di Natale","Site":null,"ImageUrl":null,"Zone":null,"Open":null},{"Id":305,"Name":"Samatorza, 2, TS, Italia","Latitude":45.757701,"Longitude":13.717492,"Address":"Tel. 040 229261","Phone":"Dal 3 AL 23 Aprile","Site":null,"ImageUrl":null,"Zone":null,"Open":null},{"Id":306,"Name":"Samatorza, TS, Italia","Latitude":45.7601258,"Longitude":13.7171303,"Address":"Tel. 040 229449","Phone":"Dal 20 Aprile AL 10 Maggio, Dal 20 Settembre a fine mese","Site":null,"ImageUrl":null,"Zone":null,"Open":null},{"Id":307,"Name":"Samatorza, TS, Italia","Latitude":45.7601258,"Longitude":13.7171303,"Address":"","Phone":"","Site":null,"ImageUrl":null,"Zone":null,"Open":null},{"Id":308,"Name":"Samatorza, TS, Italia","Latitude":45.7601258,"Longitude":13.7171303,"Address":"Tel. 040 229586","Phone":"Seconda metà di Gennaio e dal 5 al 20 Giugno","Site":null,"ImageUrl":null,"Zone":null,"Open":null},{"Id":309,"Name":"Samatorza, 6, TS, Italia","Latitude":45.758213,"Longitude":13.717497,"Address":"Tel. 040 229349","Phone":"Dal 27 Giugno a metà Luglio","Site":null,"ImageUrl":null,"Zone":null,"Open":null},{"Id":310,"Name":"Samatorza, 14, TS, Italia","Latitude":45.7468434,"Longitude":13.6618661,"Address":"Tel. 040 229199","Phone":"Dal 1° Luglio AL 4 Agosto","Site":null,"ImageUrl":null,"Zone":null,"Open":null},{"Id":311,"Name":"Samatorza, TS, Italia","Latitude":45.7601258,"Longitude":13.7171303,"Address":"Tel. 040 229180","Phone":"Agosto","Site":null,"ImageUrl":null,"Zone":null,"Open":null},{"Id":312,"Name":"Località Sales, 46, Sales, Trieste, Italia","Latitude":45.747442,"Longitude":13.730068,"Address":"Tel. 040 229439","Phone":"Febbraio, Giugno, Ottobre","Site":null,"ImageUrl":null,"Zone":null,"Open":null},{"Id":313,"Name":"Località Sales, 109, Sales, Trieste, Italia","Latitude":45.745612,"Longitude":13.7326,"Address":"Tel. 040 2296099","Phone":"Da fine Giugno a inizio Luglio","Site":null,"ImageUrl":null,"Zone":null,"Open":null},{"Id":314,"Name":"Località Sales, 51, Sales, Trieste, Italia","Latitude":45.74787,"Longitude":13.730045,"Address":"Tel. 040 229487","Phone":"Da fine Maggio a inizio Giugno","Site":null,"ImageUrl":null,"Zone":null,"Open":null},{"Id":315,"Name":"Località Sales, 43/A, Sales, Trieste, Italia","Latitude":45.747803,"Longitude":13.729333,"Address":"Tel. 040 229264","Phone":"Da fine Dicembre a metà Gennaio","Site":null,"ImageUrl":null,"Zone":null,"Open":null},{"Id":316,"Name":"Località Colludrozza, 16, Trieste","Latitude":45.732367,"Longitude":13.692182,"Address":"Tel. 040 2296038","Phone":"DA 22 Maggio A 5 Giugno e dal23 Giugno A 6 Luglio","Site":null,"ImageUrl":null,"Zone":null,"Open":null},{"Id":317,"Name":"Sgonico, 71, TS, Italia","Latitude":45.73681,"Longitude":13.74809,"Address":"Tel. 040 229337","Phone":"Giugno","Site":null,"ImageUrl":null,"Zone":null,"Open":null},{"Id":318,"Name":"Sgonico, 36, TS, Italia","Latitude":45.736643,"Longitude":13.749311,"Address":"Tel. 040 2291986","Phone":"Dal 1° AL 26 Aprile, dal 1° AL 25 Agosto, seconda metà Ottobre","Site":null,"ImageUrl":null,"Zone":null,"Open":null},{"Id":319,"Name":"Sgonico, 34, TS, Italia","Latitude":45.7371,"Longitude":13.749488,"Address":"Tel. 040 229164","Phone":"MaggioeE Settembre","Site":null,"ImageUrl":null,"Zone":null,"Open":null},{"Id":320,"Name":"Sgonico, 64, TS, Italia","Latitude":45.736738,"Longitude":13.7465,"Address":"Tel. 040 229293","Phone":"Dal 5 AL 28 Giugno","Site":null,"ImageUrl":null,"Zone":null,"Open":null},{"Id":321,"Name":"Località Gabrovizza, 27, Gabrovizza, TS, Italia","Latitude":45.726353,"Longitude":13.727927,"Address":"Tel. 040 229424","Phone":"Dal 9 AL 17 Maggio, Dal 13 AL 21 Giugno","Site":null,"ImageUrl":null,"Zone":null,"Open":null},{"Id":322,"Name":"Rupinpiccolo, 2, TS, Italia","Latitude":45.725856,"Longitude":13.762625,"Address":"Tel. 040 229174","Phone":"Seconda metà di Giugno","Site":null,"ImageUrl":null,"Zone":null,"Open":null},{"Id":323,"Name":"Borgo Grotta Gigante, 18, TS, Italia","Latitude":45.7097082,"Longitude":13.7645565,"Address":"Tel. 040 327009","Phone":"Dal 1° AL 20 Aprile","Site":null,"ImageUrl":null,"Zone":null,"Open":null},{"Id":324,"Name":"Via Commerciale, 180, Trieste, TS, Italia","Latitude":45.6704526,"Longitude":13.7889603,"Address":"Tel. 040 415673","Phone":"Dal 20 Aprile a metà Maggio","Site":null,"ImageUrl":null,"Zone":null,"Open":null},{"Id":325,"Name":"Via dei Moreri, 117, Trieste, TS, Italia","Latitude":45.6693981,"Longitude":13.7783425,"Address":"Tel. 040 43992","Phone":"DA 16 Marzo a fine Aprile, Da fine Maggio a metà Giugno, 1a metà Ottobre","Site":null,"ImageUrl":null,"Zone":null,"Open":null},{"Id":326,"Name":"Via dei Molini, 16, Trieste, TS, Italia","Latitude":45.6713906,"Longitude":13.7833923,"Address":"Tel. 040 417649","Phone":"Dal 1° AL 15 Maggio, Dal 10 AL 27 Dicembre","Site":null,"ImageUrl":null,"Zone":null,"Open":null},{"Id":327,"Name":"Strada per Longera, 255, Trieste, TS, Italia","Latitude":45.647707,"Longitude":13.8196954,"Address":"Tel. 040 910041","Phone":"Dal 7 AL 20 Marzo e tutto Dicembre","Site":null,"ImageUrl":null,"Zone":null,"Open":null},{"Id":328,"Name":"Strada per Longera, 291/1, Trieste, TS, Italia","Latitude":45.6530384,"Longitude":13.8066374,"Address":"Tel. 040 911570","Phone":"Da fine Gennaio a fine Febbraio","Site":null,"ImageUrl":null,"Zone":null,"Open":null},{"Id":329,"Name":"Sant'Antonio In Bosco, 46, TS, Italia","Latitude":45.624615,"Longitude":13.858725,"Address":"Tel. 040 228262","Phone":"Maggio E Giugno","Site":null,"ImageUrl":null,"Zone":null,"Open":null},{"Id":330,"Name":"San Dorligo della Valle, 37, TS, Italia","Latitude":45.6014059,"Longitude":13.8596448,"Address":"Tel. 228594","Phone":"Febbraio","Site":null,"ImageUrl":null,"Zone":null,"Open":null},{"Id":331,"Name":"Sant'Antonio In Bosco, TS, Italia","Latitude":45.624143,"Longitude":13.859264,"Address":"Tel. 040 228671","Phone":"Febbraio E Giugno","Site":null,"ImageUrl":null,"Zone":null,"Open":null},{"Id":332,"Name":"San Giuseppe della Chiusa, 175, TS, Italia","Latitude":45.6252329,"Longitude":13.8401052,"Address":"Tel. 040 820223","Phone":"Dal 27 Marzo AL 9 Aprile, Da fine Ottobre a inizio Novembre","Site":null,"ImageUrl":null,"Zone":null,"Open":null},{"Id":333,"Name":"San Dorligo della Valle, 442, TS, Italia","Latitude":45.6026841,"Longitude":13.8551056,"Address":"Tel. 040 228567","Phone":"Aprile","Site":null,"ImageUrl":null,"Zone":null,"Open":null},{"Id":334,"Name":"Dolina, TS","Latitude":45.6070443,"Longitude":13.8564292,"Address":"Tel. 040 380749","Phone":"Dal 17 AL 30 Aprile","Site":null,"ImageUrl":null,"Zone":null,"Open":null},{"Id":335,"Name":"Prebenico, TS, Italia","Latitude":45.5865925,"Longitude":13.8491401,"Address":"Tel. 040 232577","Phone":"Da inizio Aprile a inizio Maggio","Site":null,"ImageUrl":null,"Zone":null,"Open":null},{"Id":336,"Name":"Sant'Antonio In Bosco, TS, Italia","Latitude":45.624143,"Longitude":13.859264,"Address":"Tel. 040 228451","Phone":"da metà Maggio a metà Giugno","Site":null,"ImageUrl":null,"Zone":null,"Open":null},{"Id":337,"Name":"Località Mattonaia, 154, Domio, TS, Italia","Latitude":45.6073464,"Longitude":13.8351214,"Address":"Tel. 040 825385","Phone":"Dal 28 Aprile AL 10 Maggio","Site":null,"ImageUrl":null,"Zone":null,"Open":null},{"Id":338,"Name":"Crociata, 75, TS, Italia","Latitude":45.5830879,"Longitude":13.838094,"Address":"Tel. 040 231588","Phone":"Dal 9 a fine Maggio","Site":null,"ImageUrl":null,"Zone":null,"Open":null},{"Id":339,"Name":"Prebenico, 43, TS, Italia","Latitude":45.586893,"Longitude":13.848895,"Address":"Tel. 040 232223","Phone":"Da fine Maggio a metà Giugno","Site":null,"ImageUrl":null,"Zone":null,"Open":null},{"Id":340,"Name":"Caresana, TS, Italia","Latitude":45.5902757,"Longitude":13.8379773,"Address":"Tel. 040 231975","Phone":"Da fine Giugno a metà Luglio, Da fine Agosto a inizio SETTEMBRE","Site":null,"ImageUrl":null,"Zone":null,"Open":null},{"Id":341,"Name":"Bagnoli della Rosandra, 546, TS, Italia","Latitude":45.6138531,"Longitude":13.8584046,"Address":"Tel. 040 227050","Phone":"Da fine Aprile A Novembre (escluse le due settimani centrali di Maggio)","Site":null,"ImageUrl":null,"Zone":null,"Open":null},{"Id":342,"Name":"Bagnoli della Rosandra, 244, TS, Italia","Latitude":45.613833,"Longitude":13.858317,"Address":"Tel. 040 8325063","Phone":"15 Maggio A 15 Settembre","Site":null,"ImageUrl":null,"Zone":null,"Open":null},{"Id":343,"Name":"Muggia, TS","Latitude":45.6031543,"Longitude":13.7667974,"Address":"","Phone":"","Site":null,"ImageUrl":null,"Zone":null,"Open":null},{"Id":344,"Name":"Muggia, TS","Latitude":45.6031543,"Longitude":13.7667974,"Address":"","Phone":"","Site":null,"ImageUrl":null,"Zone":null,"Open":null},{"Id":345,"Name":"Via Darsella di S. Bartolomeo, 28/B, Muggia, TS, Italia","Latitude":45.599838,"Longitude":13.736623,"Address":"","Phone":"","Site":null,"ImageUrl":null,"Zone":null,"Open":null},{"Id":346,"Name":"Via N. Colarich, 78, Muggia, TS, Italia","Latitude":45.591054,"Longitude":13.7736632,"Address":"","Phone":"","Site":null,"ImageUrl":null,"Zone":null,"Open":null},{"Id":347,"Name":"Strada per Fontanella, 26, Muggia, Trieste, Italia","Latitude":45.5994164,"Longitude":13.7466194,"Address":"","Phone":"","Site":null,"ImageUrl":null,"Zone":null,"Open":null},{"Id":348,"Name":"Via di Santa Barbara Stradello A, 26, Muggia, TS, Italia","Latitude":45.596385,"Longitude":13.7760092,"Address":"Tel. 040 274224","Phone":"Dal 10 AL 31 Luglio","Site":null,"ImageUrl":null,"Zone":null,"Open":null}]